$GPRMC,160017.000,A,4404.5174,N,07927.1768,W,4.64,8.82,300324,,,A*7F
$GPVTG,8.82,T,,M,4.64,N,8.6,K,A*07
$GPGGA,160018.000,4404.5181,N,07927.1766,W,1,08,1.7,239.4,M,-35.5,M,,0000*68
$GPGLL,4404.5181,N,07927.1766,W,160018.000,A,A*41
$GPGSA,A,3,08,30,14,02,07,21,22,13,,,,,3.5,1.7,3.1*3A
$GPRMC,160026.000,A,4404.5176,N,07927.1759,W,0.00,,300324,,,A*67
$GPVTG,,T,,M,0.00,N,0.0,K,A*13
$GPGGA,160027.000,4404.5176,N,07927.1759,W,1,09,1.2,239.0,M,-35.5,M,,0000*60
$GPGLL,4404.5176,N,07927.1759,W,160027.000,A,A*49
$GPGSA,A,3,08,30,14,17,02,07,21,22,13,,,,2.6,1.2,2.3*38
$GPGSV,3,1,12,03,81,262,,05,65,309,,30,65,267,19,07,60,186,25*7A
$GPGSV,3,2,12,02,52,124,26,21,51,095,29,14,47,296,29,24,43,137,*79
$GPGSV,3,3,12,08,38,054,34,01,34,252,,17,27,233,22,22,27,288,29*71
$GPRMC,160036.000,A,4404.5152,N,07927.1703,W,0.00,,300324,,,A*6F
$GPVTG,,T,,M,0.00,N,0.0,K,A*13
$GPGGA,160037.000,4404.5152,N,07927.1703,W,6,00,50.0,235.3,M,-35.5,M,,0000*5F
$GPGLL,4404.5152,N,07927.1703,W,160037.000,V,E*52
$GPGSA,A,2,,,,,,,,,,,,,50.0,50.0,50.0*06
$GPGSV,3,1,12,03,81,262,,05,65,309,,30,65,267,27,07,60,186,24*76
$GPGSV,3,2,12,02,52,124,24,21,51,095,22,14,47,296,29,24,43,137,*70
$GPGSV,3,3,12,08,38,054,,01,34,252,,17,27,233,25,22,27,288,26*7E
$GPRMC,160046.000,A,4404.5179,N,07927.1642,W,1.27,112.65,300324,,,A*7E
$GPVTG,112.65,T,,M,1.27,N,2.4,K,A*0E
$GPGGA,160047.000,4404.5173,N,07927.1639,W,1,07,1.4,236.4,M,-35.5,M,,0000*67
$GPGLL,4404.5173,N,07927.1639,W,160047.000,A,A*4D
$GPGSA,A,3,08,30,17,02,21,22,13,,,,,,3.1,1.4,2.7*3E
$GPGSV,3,1,12,03,82,269,,05,66,311,,30,65,264,22,07,58,185,*7C
$GPGSV,3,2,12,02,52,122,27,21,51,092,32,14,48,297,,24,44,136,*70
$GPGSV,3,3,12,08,37,055,30,01,33,250,,17,29,234,23,22,28,289,26*77
$GPRMC,160056.000,A,4404.5174,N,07927.1640,W,0.00,,300324,,,A*6B
$GPVTG,,T,,M,0.00,N,0.0,K,A*13
$GPGGA,160057.000,4404.5174,N,07927.1640,W,1,07,1.9,236.0,M,-35.5,M,,0000*66
$GPGLL,4404.5174,N,07927.1640,W,160057.000,A,A*45
$GPGSA,A,3,08,17,22,02,07,21,13,,,,,,5.5,1.9,5.2*37
$GPGSV,3,1,12,03,82,269,,05,66,311,,30,65,264,19,07,58,185,27*71
$GPGSV,3,2,12,02,52,122,36,21,51,092,33,14,48,297,,24,44,136,*71
$GPGSV,3,3,12,08,37,055,25,01,33,250,,17,29,234,32,22,28,289,26*73
$GPRMC,160106.000,A,4404.5174,N,07927.1640,W,0.00,,300324,,,A*6F
$GPVTG,,T,,M,0.00,N,0.0,K,A*13
$GPGGA,160107.000,4404.5174,N,07927.1640,W,1,06,2.0,236.0,M,-35.5,M,,0000*69
$GPGLL,4404.5174,N,07927.1640,W,160107.000,A,A*41
$GPGSA,A,3,08,30,22,02,21,07,,,,,,,4.7,2.0,4.2*38
$GPGSV,3,1,12,03,82,269,,05,66,311,,30,65,264,27,07,58,185,23*78
$GPGSV,3,2,12,02,52,122,32,21,51,092,33,14,48,297,,24,44,136,*75
$GPGSV,3,3,12,08,37,055,32,01,33,250,,17,29,234,,22,28,289,32*71
$GPRMC,160116.000,A,4404.5093,N,07927.1659,W,2.69,131.79,300324,,,A*70
$GPVTG,131.79,T,,M,2.69,N,5.0,K,A*08
$GPGGA,160117.000,4404.5090,N,07927.1653,W,1,08,1.2,235.7,M,-35.5,M,,0000*6A
$GPGLL,4404.5090,N,07927.1653,W,160117.000,A,A*49
$GPGSA,A,3,08,30,22,17,02,21,07,14,,,,,2.8,1.2,2.6*31
$GPGSV,3,1,12,05,66,311,,30,65,263,26,07,58,185,22,02,53,121,27*78
$GPGSV,3,2,12,21,51,092,31,14,48,297,28,24,44,135,,08,37,055,36*72
$GPGSV,3,3,12,01,33,250,,17,29,234,25,22,28,289,30,13,20,302,*78
$GPRMC,160126.000,A,4404.5069,N,07927.1636,W,0.00,,300324,,,A*61
$GPVTG,,T,,M,0.00,N,0.0,K,A*13
$GPGGA,160127.000,4404.5069,N,07927.1636,W,1,09,1.2,237.7,M,-35.5,M,,0000*6F
$GPGLL,4404.5069,N,07927.1636,W,160127.000,A,A*4F
$GPGSA,A,3,08,30,22,17,02,13,21,07,14,,,,2.6,1.2,2.3*38
$GPGSV,3,1,12,05,66,311,,30,65,263,24,07,58,185,28,02,53,121,31*77
$GPGSV,3,2,12,21,51,092,29,14,48,297,21,24,44,135,,08,37,055,19*7F
$GPGSV,3,3,12,01,33,250,,17,29,234,31,22,28,289,23,13,20,302,20*7D
$GPRMC,160136.000,A,4404.5069,N,07927.1636,W,0.00,,300324,,,A*60
$GPVTG,,T,,M,0.00,N,0.0,K,A*13
$GPGGA,160137.000,4404.5069,N,07927.1636,W,1,07,1.3,237.7,M,-35.5,M,,0000*61
$GPGLL,4404.5069,N,07927.1636,W,160137.000,A,A*4E
$GPGSA,A,3,08,17,02,13,21,07,14,,,,,,3.4,1.3,3.1*3A
$GPGSV,3,1,12,05,66,311,,30,65,263,,07,58,185,24,02,53,121,29*74
$GPGSV,3,2,12,21,51,092,32,14,48,297,19,24,44,135,,08,37,055,28*7C
$GPGSV,3,3,12,01,33,250,,17,29,234,23,22,28,289,12,13,20,302,22*7E
$GPRMC,160146.000,A,4404.5069,N,07927.1636,W,0.00,,300324,,,A*67
$GPVTG,,T,,M,0.00,N,0.0,K,A*13
$GPGGA,160147.000,4404.5069,N,07927.1636,W,1,09,1.2,237.7,M,-35.5,M,,0000*69
$GPGLL,4404.5069,N,07927.1636,W,160147.000,A,A*49
$GPGSA,A,3,08,30,22,17,02,13,21,07,14,,,,2.6,1.2,2.3*38
$GPGSV,3,1,12,05,66,311,,30,65,263,25,07,58,185,25,02,53,121,25*7E
$GPGSV,3,2,12,21,51,092,25,14,48,297,31,24,44,135,,08,37,055,17*7C
$GPGSV,3,3,12,01,33,250,,17,29,234,33,22,28,289,34,13,20,302,23*7A
$GPRMC,160156.000,A,4404.5069,N,07927.1636,W,0.00,,300324,,,A*66
$GPVTG,,T,,M,0.00,N,0.0,K,A*13
$GPGGA,160157.000,4404.5069,N,07927.1636,W,1,09,1.2,237.7,M,-35.5,M,,0000*68
$GPGLL,4404.5069,N,07927.1636,W,160157.000,A,A*48
$GPGSA,A,3,08,30,22,17,02,13,21,07,14,,,,2.6,1.2,2.3*38
$GPGSV,3,1,12,05,66,311,,30,65,263,27,07,58,185,29,02,53,121,29*7C
$GPGSV,3,2,12,21,51,092,27,14,48,297,30,24,44,135,,08,37,055,21*7A
$GPGSV,3,3,12,01,33,250,,17,29,234,34,22,28,289,25,13,20,302,20*7E
$GPRMC,160206.000,A,4404.5069,N,07927.1636,W,0.00,,300324,,,A*60
$GPVTG,,T,,M,0.00,N,0.0,K,A*13
$GPGGA,160207.000,4404.5069,N,07927.1636,W,1,09,1.2,237.7,M,-35.5,M,,0000*6E
$GPGLL,4404.5069,N,07927.1636,W,160207.000,A,A*4E
$GPGSA,A,3,08,30,22,17,02,21,07,14,13,,,,2.6,1.2,2.3*38
$GPGSV,3,1,12,05,66,311,,30,65,263,26,07,58,185,28,02,53,121,30*74
$GPGSV,3,2,12,21,51,092,29,14,48,297,22,24,44,135,,08,37,055,18*7D
$GPGSV,3,3,12,01,33,250,,17,29,234,30,22,28,289,24,13,20,302,17*7F
$GPRMC,160216.000,A,4404.5069,N,07927.1636,W,0.00,,300324,,,A*61
$GPVTG,,T,,M,0.00,N,0.0,K,A*13
$GPGGA,160217.000,4404.5069,N,07927.1636,W,1,09,1.2,237.7,M,-35.5,M,,0000*6F
$GPGLL,4404.5069,N,07927.1636,W,160217.000,A,A*4F
$GPGSA,A,3,08,30,22,17,02,21,07,14,13,,,,2.6,1.2,2.3*38
$GPGSV,3,1,12,05,66,311,,30,65,263,28,07,58,185,19,02,53,121,27*7E
$GPGSV,3,2,12,21,51,092,26,14,48,297,36,24,44,135,,08,37,055,31*7C
$GPGSV,3,3,12,01,33,250,,17,29,234,30,22,28,289,30,13,20,302,33*7C
$GPRMC,160226.000,A,4404.5069,N,07927.1636,W,0.00,,300324,,,A*62
$GPVTG,,T,,M,0.00,N,0.0,K,A*13
$GPGGA,160227.000,4404.5069,N,07927.1636,W,1,07,1.4,237.7,M,-35.5,M,,0000*64
$GPGLL,4404.5069,N,07927.1636,W,160227.000,A,A*4C
$GPGSA,A,3,08,30,22,21,17,14,13,,,,,,2.8,1.4,2.4*32
$GPGSV,3,1,12,05,66,311,,30,65,263,19,07,58,185,,02,53,121,14*74
$GPGSV,3,2,12,21,51,092,20,14,48,297,33,24,44,135,,08,37,055,29*76
$GPGSV,3,3,12,01,33,250,,17,29,234,34,22,28,289,31,13,20,302,33*79
$GPRMC,160236.000,A,4404.5069,N,07927.1636,W,0.00,,300324,,,A*63
$GPVTG,,T,,M,0.00,N,0.0,K,A*13
$GPGGA,160237.000,4404.5069,N,07927.1636,W,1,08,1.2,237.7,M,-35.5,M,,0000*6C
$GPGLL,4404.5069,N,07927.1636,W,160237.000,A,A*4D
$GPGSA,A,3,08,30,22,07,02,17,14,13,,,,,2.7,1.2,2.4*3D
$GPGSV,3,1,12,05,66,311,,30,65,263,26,07,58,185,29,02,53,121,16*71
$GPGSV,3,2,12,21,51,092,,14,48,297,36,24,44,135,,08,37,055,29*71
$GPGSV,3,3,12,01,33,250,,17,29,234,29,22,28,289,34,13,20,302,33*70
$GPRMC,160246.000,A,4404.5069,N,07927.1636,W,0.00,,300324,,,A*64
$GPVTG,,T,,M,0.00,N,0.0,K,A*13
$GPGGA,160247.000,4404.5069,N,07927.1636,W,1,09,1.2,237.7,M,-35.5,M,,0000*6A
$GPGLL,4404.5069,N,07927.1636,W,160247.000,A,A*4A
$GPGSA,A,3,08,30,22,07,02,21,17,14,13,,,,2.6,1.2,2.4*3F
$GPGSV,3,1,12,05,67,312,,30,65,261,24,07,57,185,27,02,53,120,22*74
$GPGSV,3,2,12,21,51,091,27,14,49,297,28,24,45,135,,08,36,055,35*74
$GPGSV,3,3,12,01,33,250,,17,29,234,34,22,29,289,32,13,20,301,33*78
$GPRMC,160256.000,A,4404.5069,N,07927.1636,W,0.00,,300324,,,A*65
$GPVTG,,T,,M,0.00,N,0.0,K,A*13
$GPGGA,160257.000,4404.5069,N,07927.1636,W,1,08,1.3,237.7,M,-35.5,M,,0000*6B
$GPGLL,4404.5069,N,07927.1636,W,160257.000,A,A*4B
$GPGSA,A,3,08,30,22,02,21,17,14,13,,,,,2.7,1.3,2.4*38
$GPGSV,3,1,12,05,67,312,,30,65,261,28,07,57,185,23,02,53,120,27*79
$GPGSV,3,2,12,21,51,091,31,14,49,297,29,24,45,135,,08,36,055,25*73
$GPGSV,3,3,12,01,33,250,,17,29,234,29,22,29,289,31,13,20,301,30*74
$GPRMC,160306.000,A,4404.5120,N,07927.1691,W,10.11,101.74,300324,,,A*4C
$GPVTG,101.74,T,,M,10.11,N,18.7,K,A*01
$GPGGA,160307.000,4404.5110,N,07927.1652,W,1,09,1.2,235.9,M,-35.5,M,,0000*6E
$GPGLL,4404.5110,N,07927.1652,W,160307.000,A,A*42
$GPGSA,A,3,08,22,07,02,21,17,13,14,30,,,,2.7,1.2,2.4*3E
$GPGSV,3,1,12,05,67,312,,30,65,261,27,07,57,184,19,02,53,120,25*7C
$GPGSV,3,2,12,21,51,090,28,14,49,297,30,24,45,135,,08,36,055,32*74
$GPGSV,3,3,12,01,33,249,,17,30,235,26,22,29,289,29,13,20,301,29*7B
$GPRMC,160316.000,A,4404.5008,N,07927.1327,W,10.73,106.30,300324,,,A*4D
$GPVTG,106.30,T,,M,10.73,N,19.9,K,A*0D
$GPGGA,160317.000,4404.4995,N,07927.1283,W,1,09,1.2,244.5,M,-35.5,M,,0000*69
$GPGLL,4404.4995,N,07927.1283,W,160317.000,A,A*4F
$GPGSA,A,3,08,22,07,02,21,17,13,14,30,,,,2.7,1.2,2.4*3E
$GPGSV,3,1,12,05,67,312,,30,65,261,25,07,57,184,17,02,53,120,21*74
$GPGSV,3,2,12,21,51,090,24,14,49,297,28,24,45,135,,08,36,055,30*73
$GPGSV,3,3,12,01,33,249,,17,30,235,21,22,29,289,27,13,20,301,28*73
$GPRMC,160326.000,A,4404.4920,N,07927.0995,W,8.61,120.99,300324,,,A*73
$GPVTG,120.99,T,,M,8.61,N,15.9,K,A*3C
$GPGGA,160327.000,4404.4905,N,07927.0972,W,1,09,1.2,248.9,M,-35.5,M,,0000*67
$GPGLL,4404.4905,N,07927.0972,W,160327.000,A,A*41
$GPGSA,A,3,08,22,07,02,21,17,13,14,30,,,,2.7,1.2,2.4*3E
$GPGSV,3,1,12,05,67,312,,30,65,261,24,07,57,184,19,02,53,120,26*7C
$GPGSV,3,2,12,21,51,090,30,14,49,297,21,24,45,135,,08,36,055,32*7D
$GPGSV,3,3,12,01,33,249,,17,30,235,25,22,29,289,23,13,20,301,24*7F
$GPRMC,160336.000,A,4404.4851,N,07927.0918,W,0.00,,300324,,,A*62
$GPVTG,,T,,M,0.00,N,0.0,K,A*13
$GPGGA,160337.000,4404.4851,N,07927.0918,W,1,09,1.2,246.8,M,-35.5,M,,0000*65
$GPGLL,4404.4851,N,07927.0918,W,160337.000,A,A*4C
$GPGSA,A,3,08,22,07,02,21,17,13,14,30,,,,2.7,1.2,2.4*3E
$GPGSV,3,1,12,05,67,312,,30,65,261,23,07,57,184,31,02,53,120,32*74
$GPGSV,3,2,12,21,51,090,27,14,49,298,24,24,45,134,,08,36,055,22*71
$GPGSV,3,3,12,01,32,249,,17,30,235,26,22,29,289,23,13,20,301,20*79
$GPRMC,160346.000,A,4404.4851,N,07927.0918,W,0.00,,300324,,,A*65
$GPVTG,,T,,M,0.00,N,0.0,K,A*13
$GPGGA,160347.000,4404.4851,N,07927.0918,W,1,09,1.2,246.8,M,-35.5,M,,0000*62
$GPGLL,4404.4851,N,07927.0918,W,160347.000,A,A*4B
$GPGSA,A,3,08,22,07,02,21,17,13,14,30,,,,2.7,1.2,2.4*3E
$GPGSV,3,1,12,05,67,312,,30,65,261,20,07,57,184,22,02,53,120,35*72
$GPGSV,3,2,12,21,51,090,26,14,49,298,23,24,45,134,,08,36,055,33*77
$GPGSV,3,3,12,01,32,249,,17,30,235,28,22,29,289,15,13,20,301,16*77
$GPRMC,160356.000,A,4404.4851,N,07927.0918,W,0.00,,300324,,,A*64
$GPVTG,,T,,M,0.00,N,0.0,K,A*13
$GPGGA,160357.000,4404.4851,N,07927.0918,W,1,08,1.2,246.8,M,-35.5,M,,0000*62
$GPGLL,4404.4851,N,07927.0918,W,160357.000,A,A*4A
$GPGSA,A,3,08,07,02,21,17,13,14,30,,,,,2.7,1.2,2.4*3E
$GPGSV,3,1,12,05,67,312,,30,65,261,25,07,57,184,27,02,53,120,35*72
$GPGSV,3,2,12,21,51,090,28,14,49,298,26,24,45,134,,08,36,055,26*78
$GPGSV,3,3,12,01,32,249,,17,30,235,26,22,29,289,25,13,20,301,26*79
$GPRMC,160406.000,A,4404.4851,N,07927.0918,W,0.00,,300324,,,A*66
$GPVTG,,T,,M,0.00,N,0.0,K,A*13
$GPGGA,160407.000,4404.4851,N,07927.0918,W,1,07,1.4,246.8,M,-35.5,M,,0000*69
$GPGLL,4404.4851,N,07927.0918,W,160407.000,A,A*48
$GPGSA,A,3,08,14,21,17,13,22,30,,,,,,2.8,1.4,2.4*32
$GPGSV,3,1,12,05,67,312,,30,65,261,21,07,57,184,,02,53,120,*75
$GPGSV,3,2,12,21,51,090,24,14,49,298,28,24,45,134,,08,36,055,14*7B
$GPGSV,3,3,12,01,32,249,,17,30,235,22,22,29,289,35,13,20,301,29*73
$GPRMC,160416.000,A,4404.4851,N,07927.0918,W,0.00,,300324,,,A*67
$GPVTG,,T,,M,0.00,N,0.0,K,A*13
$GPGGA,160417.000,4404.4851,N,07927.0918,W,1,08,1.3,246.8,M,-35.5,M,,0000*60
$GPGLL,4404.4851,N,07927.0918,W,160417.000,A,A*49
$GPGSA,A,3,08,02,07,14,21,17,13,22,,,,,3.4,1.3,3.1*3A
$GPGSV,3,1,12,05,67,312,,30,65,261,,07,57,184,25,02,53,120,26*75
$GPGSV,3,2,12,21,51,090,24,14,49,298,24,24,45,134,,08,36,055,26*76
$GPGSV,3,3,12,01,32,249,,17,30,235,24,22,29,289,28,13,20,301,23*73
$GPRMC,160426.000,A,4404.4851,N,07927.0918,W,0.00,,300324,,,A*64
$GPVTG,,T,,M,0.00,N,0.0,K,A*13
$GPGGA,160427.000,4404.4851,N,07927.0918,W,1,05,2.7,246.8,M,-35.5,M,,0000*69
$GPGLL,4404.4851,N,07927.0918,W,160427.000,A,A*4A
$GPGSA,A,3,08,02,07,17,13,,,,,,,,7.5,2.7,7.0*3B
$GPGSV,3,1,12,05,67,312,,30,65,261,18,07,57,184,32,02,53,120,22*7E
$GPGSV,3,2,12,21,51,090,17,14,49,298,,24,45,134,,08,36,055,24*72
$GPGSV,3,3,12,01,32,249,,17,30,235,25,22,29,289,,13,20,301,15*7D
$GPRMC,160436.000,A,4404.4851,N,07927.0918,W,0.00,,300324,,,A*65
$GPVTG,,T,,M,0.00,N,0.0,K,A*13
$GPGGA,160437.000,4404.4851,N,07927.0918,W,1,09,1.2,246.8,M,-35.5,M,,0000*62
$GPGLL,4404.4851,N,07927.0918,W,160437.000,A,A*4B
$GPGSA,A,3,08,02,07,14,21,17,13,22,30,,,,2.7,1.2,2.4*3E
$GPGSV,3,1,12,05,67,312,,30,65,261,29,07,57,184,20,02,53,120,29*74
$GPGSV,3,2,12,21,51,090,23,14,49,298,25,24,45,134,,08,36,055,19*7C
$GPGSV,3,3,12,01,32,249,,17,30,235,25,22,29,289,23,13,20,301,20*7A
$GPRMC,160446.000,A,4404.4851,N,07927.0918,W,0.00,,300324,,,A*62
$GPVTG,,T,,M,0.00,N,0.0,K,A*13
$GPGGA,160447.000,4404.4851,N,07927.0918,W,1,08,1.4,246.8,M,-35.5,M,,0000*62
$GPGLL,4404.4851,N,07927.0918,W,160447.000,A,A*4C
$GPGSA,A,3,08,02,07,21,17,13,22,30,,,,,3.1,1.4,2.8*36
$GPGSV,3,1,12,05,67,312,,30,65,261,24,07,57,184,33,02,53,120,29*7B
$GPGSV,3,2,12,21,51,090,31,14,49,298,15,24,45,134,,08,36,055,23*75
$GPGSV,3,3,12,01,32,249,,17,30,235,27,22,29,289,28,13,20,301,16*76
$GPRMC,160456.000,A,4404.4851,N,07927.0918,W,0.00,,300324,,,A*63
$GPVTG,,T,,M,0.00,N,0.0,K,A*13
$GPGGA,160457.000,4404.4851,N,07927.0918,W,1,08,1.2,246.8,M,-35.5,M,,0000*65
$GPGLL,4404.4851,N,07927.0918,W,160457.000,A,A*4D
$GPGSA,A,3,08,02,07,14,21,17,22,30,,,,,2.9,1.2,2.6*30
$GPGSV,3,1,12,05,67,312,,30,65,261,30,07,57,184,23,02,53,120,30*77
$GPGSV,3,2,12,21,51,090,31,14,49,298,24,24,45,134,,08,36,055,18*7F
$GPGSV,3,3,12,01,32,249,,17,30,235,24,22,29,289,16,13,20,301,20*7D
$GPRMC,160506.000,A,4404.4851,N,07927.0918,W,0.00,,300324,,,A*67
$GPVTG,,T,,M,0.00,N,0.0,K,A*13
$GPGGA,160507.000,4404.4851,N,07927.0918,W,1,09,1.2,246.8,M,-35.5,M,,0000*60
$GPGLL,4404.4851,N,07927.0918,W,160507.000,A,A*49
$GPGSA,A,3,08,13,02,07,14,21,17,22,30,,,,2.7,1.2,2.4*3E
$GPGSV,3,1,12,05,67,312,,30,65,261,14,07,57,184,19,02,53,120,35*7D
$GPGSV,3,2,12,21,51,090,34,14,49,298,28,24,45,134,,08,36,055,39*75
$GPGSV,3,3,12,01,32,249,,17,30,235,21,22,29,289,28,13,20,301,23*76
$GPRMC,160516.000,A,4404.4851,N,07927.0918,W,0.00,,300324,,,A*66
$GPVTG,,T,,M,0.00,N,0.0,K,A*13
$GPGGA,160517.000,4404.4851,N,07927.0918,W,1,08,1.3,246.8,M,-35.5,M,,0000*61
$GPGLL,4404.4851,N,07927.0918,W,160517.000,A,A*48
$GPGSA,A,3,08,13,02,14,21,17,22,30,,,,,2.7,1.3,2.4*38
$GPGSV,3,1,12,05,68,313,,30,65,259,23,07,56,184,20,02,54,119,30*7F
$GPGSV,3,2,12,21,51,089,29,14,50,298,30,24,46,133,,08,35,055,34*7A
$GPGSV,3,3,12,01,32,248,,17,30,235,20,22,29,290,23,13,20,300,24*73
$GPRMC,160526.000,A,4404.4851,N,07927.0918,W,0.00,,300324,,,A*65
$GPVTG,,T,,M,0.00,N,0.0,K,A*13
$GPGGA,160527.000,4404.4851,N,07927.0918,W,1,08,1.2,246.8,M,-35.5,M,,0000*63
$GPGLL,4404.4851,N,07927.0918,W,160527.000,A,A*4B
$GPGSA,A,3,08,13,02,07,14,21,17,30,,,,,2.7,1.2,2.4*3E
$GPGSV,3,1,12,05,68,313,,30,65,259,33,07,56,184,24,02,54,119,35*7F
$GPGSV,3,2,12,21,51,089,38,14,50,298,27,24,46,133,,08,35,055,24*7D
$GPGSV,3,3,12,01,32,248,,17,30,235,15,22,29,290,,13,20,300,23*73
$GPRMC,160536.000,A,4404.4851,N,07927.0918,W,0.00,,300324,,,A*64
$GPVTG,,T,,M,0.00,N,0.0,K,A*13
$GPGGA,160537.000,4404.4851,N,07927.0918,W,1,09,1.2,246.8,M,-35.5,M,,0000*63
$GPGLL,4404.4851,N,07927.0918,W,160537.000,A,A*4A
$GPGSA,A,3,08,13,02,07,14,21,17,22,30,,,,2.7,1.2,2.4*3E
$GPGSV,3,1,12,05,68,313,,30,65,259,29,07,56,184,31,02,54,119,32*77
$GPGSV,3,2,12,21,51,089,26,14,50,298,29,24,46,133,,08,35,055,26*7E
$GPGSV,3,3,12,01,32,248,,17,30,235,31,22,29,290,32,13,20,300,30*76
$GPRMC,160546.000,A,4404.4851,N,07927.0918,W,0.00,,300324,,,A*63
$GPVTG,,T,,M,0.00,N,0.0,K,A*13
$GPGGA,160547.000,4404.4851,N,07927.0918,W,1,08,1.7,246.8,M,-35.5,M,,0000*60
$GPGLL,4404.4851,N,07927.0918,W,160547.000,A,A*4D
$GPGSA,A,3,08,13,02,07,14,21,22,30,,,,,3.5,1.7,3.1*3A
$GPGSV,3,1,12,05,68,313,,30,65,259,33,07,56,184,31,02,54,119,28*77
$GPGSV,3,2,12,21,51,089,24,14,50,298,30,24,46,133,,08,35,055,28*7A
$GPGSV,3,3,12,01,32,248,,17,30,235,16,22,29,290,30,13,20,300,25*75
$GPRMC,160556.000,A,4404.4851,N,07927.0918,W,0.00,,300324,,,A*62
$GPVTG,,T,,M,0.00,N,0.0,K,A*13
$GPGGA,160557.000,4404.4851,N,07927.0918,W,1,09,1.2,246.8,M,-35.5,M,,0000*65
$GPGLL,4404.4851,N,07927.0918,W,160557.000,A,A*4C
$GPGSA,A,3,08,13,02,07,14,21,17,22,30,,,,2.7,1.2,2.4*3E
$GPGSV,3,1,12,05,68,313,,30,65,259,26,07,56,184,38,02,54,119,33*70
$GPGSV,3,2,12,21,51,089,22,14,50,298,22,24,46,133,,08,35,055,30*76
$GPGSV,3,3,12,01,32,248,,17,30,235,34,22,29,290,37,13,20,300,27*70
$GPRMC,160606.000,A,4404.4851,N,07927.0918,W,0.00,,300324,,,A*64
$GPVTG,,T,,M,0.00,N,0.0,K,A*13
$GPGGA,160607.000,4404.4851,N,07927.0918,W,1,09,1.2,246.8,M,-35.5,M,,0000*63
$GPGLL,4404.4851,N,07927.0918,W,160607.000,A,A*4A
$GPGSA,A,3,08,13,02,07,14,21,17,22,30,,,,2.7,1.2,2.4*3E
$GPGSV,3,1,12,05,68,313,,30,65,258,30,07,56,184,38,02,54,118,34*70
$GPGSV,3,2,12,21,51,088,30,14,50,298,33,24,46,133,,08,35,055,29*7C
$GPGSV,3,3,12,01,32,248,,17,31,235,32,22,30,290,34,13,20,300,27*7C
$GPRMC,160616.000,A,4404.4851,N,07927.0918,W,0.00,,300324,,,A*65
$GPVTG,,T,,M,0.00,N,0.0,K,A*13
$GPGGA,160617.000,4404.4851,N,07927.0918,W,1,09,1.2,246.8,M,-35.5,M,,0000*62
$GPGLL,4404.4851,N,07927.0918,W,160617.000,A,A*4B
$GPGSA,A,3,08,13,02,07,14,21,17,22,30,,,,2.7,1.2,2.4*3E
$GPGSV,3,1,12,05,69,313,,30,65,257,35,07,55,184,36,02,54,118,31*73
$GPGSV,3,2,12,21,51,088,29,14,50,298,28,24,46,133,,08,35,055,22*75
$GPGSV,3,3,12,01,32,248,,17,31,236,22,22,30,290,32,13,20,300,27*78
$GPRMC,160626.000,A,4404.4851,N,07927.0918,W,0.00,,300324,,,A*66
$GPVTG,,T,,M,0.00,N,0.0,K,A*13
$GPGGA,160627.000,4404.4851,N,07927.0918,W,1,09,1.2,246.8,M,-35.5,M,,0000*61
$GPGLL,4404.4851,N,07927.0918,W,160627.000,A,A*48
$GPGSA,A,3,08,13,02,07,14,21,17,22,30,,,,2.7,1.2,2.4*3E
$GPGSV,3,1,12,05,69,313,,30,65,257,34,07,55,184,33,02,54,118,32*74
$GPGSV,3,2,12,21,51,088,28,14,50,298,29,24,46,133,,08,35,055,30*76
$GPGSV,3,3,12,01,32,248,,17,31,236,30,22,30,290,26,13,20,300,23*7A
$GPRMC,160636.000,A,4404.4851,N,07927.0918,W,0.00,,300324,,,A*67
$GPVTG,,T,,M,0.00,N,0.0,K,A*13
$GPGGA,160637.000,4404.4851,N,07927.0918,W,1,09,1.2,246.8,M,-35.5,M,,0000*60
$GPGLL,4404.4851,N,07927.0918,W,160637.000,A,A*49
$GPGSA,A,3,08,13,02,07,21,14,17,22,30,,,,2.7,1.2,2.4*3E
$GPGSV,3,1,12,05,69,313,,30,65,257,27,07,55,184,32,02,54,118,32*77
$GPGSV,3,2,12,21,51,088,29,14,50,298,27,24,46,133,,08,35,055,27*7F
$GPGSV,3,3,12,01,32,248,,17,31,236,30,22,30,290,30,13,20,300,24*7A
$GPRMC,160646.000,A,4404.4851,N,07927.0918,W,0.00,,300324,,,A*60
$GPVTG,,T,,M,0.00,N,0.0,K,A*13
$GPGGA,160647.000,4404.4851,N,07927.0918,W,1,09,1.2,246.8,M,-35.5,M,,0000*67
$GPGLL,4404.4851,N,07927.0918,W,160647.000,A,A*4E
$GPGSA,A,3,08,13,02,07,21,14,17,22,30,,,,2.7,1.2,2.4*3E
$GPGSV,3,1,12,05,69,314,,30,65,257,30,07,55,184,31,02,54,117,30*78
$GPGSV,3,2,12,21,51,087,30,14,50,299,29,24,46,133,,08,35,055,30*71
$GPGSV,3,3,12,01,32,248,,17,31,236,31,22,30,290,30,13,20,300,30*7E
$GPRMC,160656.000,A,4404.4851,N,07927.0918,W,0.00,,300324,,,A*61
$GPVTG,,T,,M,0.00,N,0.0,K,A*13
$GPGGA,160657.000,4404.4851,N,07927.0918,W,1,09,1.2,246.8,M,-35.5,M,,0000*66
$GPGLL,4404.4851,N,07927.0918,W,160657.000,A,A*4F
$GPGSA,A,3,08,13,02,07,21,14,17,22,30,,,,2.7,1.2,2.4*3E
$GPGSV,3,1,12,05,69,314,,30,65,257,32,07,55,184,33,02,54,117,33*7B
$GPGSV,3,2,12,21,51,087,33,14,50,299,26,24,46,133,,08,35,055,31*7C
$GPGSV,3,3,12,01,31,248,,17,31,236,29,22,30,290,32,13,20,300,23*74
$GPRMC,160706.000,A,4404.4851,N,07927.0918,W,0.00,,300324,,,A*65
$GPVTG,,T,,M,0.00,N,0.0,K,A*13
$GPGGA,160707.000,4404.4851,N,07927.0918,W,1,08,1.4,246.8,M,-35.5,M,,0000*65
$GPGLL,4404.4851,N,07927.0918,W,160707.000,A,A*4B
$GPGSA,A,3,08,13,02,07,21,17,22,30,,,,,3.2,1.4,2.9*34
$GPGSV,3,1,12,05,69,314,,30,65,257,33,07,55,184,34,02,54,117,28*77
$GPGSV,3,2,12,21,51,087,28,14,50,299,21,24,46,133,,08,35,055,27*76
$GPGSV,3,3,12,01,31,248,,17,31,236,31,22,30,290,29,13,20,300,23*77
$GPRMC,160716.000,A,4404.4851,N,07927.0918,W,0.00,,300324,,,A*64
$GPVTG,,T,,M,0.00,N,0.0,K,A*13
$GPGGA,160717.000,4404.4851,N,07927.0918,W,1,07,1.4,246.8,M,-35.5,M,,0000*6B
$GPGLL,4404.4851,N,07927.0918,W,160717.000,A,A*4A
$GPGSA,A,3,08,02,07,21,14,17,30,,,,,,3.2,1.4,2.9*33
$GPGSV,3,1,12,05,69,314,,30,65,256,26,07,55,184,33,02,54,117,24*79
$GPGSV,3,2,12,21,51,087,20,14,50,299,25,24,46,132,,08,34,055,25*78
$GPGSV,3,3,12,01,31,248,,17,31,236,34,22,30,290,,13,20,299,21*7A
